{"features":[{"geometry":{"coordinates":[111.5547,22.1484],"type":"Point"},"type":"Feature","properties":{"name":"澳门特别行政区"}},{"geometry":{"coordinates":[114.1178,22.3242],"type":"Point"},"type":"Feature","properties":{"name":"香港特别行政区"}},{"geometry":{"coordinates":[121.4648,31.2891],"type":"Point"},"type":"Feature","properties":{"name":"上海市"}},{"geometry":{"coordinates":[117.4219,39.4189],"type":"Point"},"type":"Feature","properties":{"name":"天津市"}},{"geometry":{"coordinates":[116.4551,40.2539],"type":"Point"},"type":"Feature","properties":{"name":"北京市"}},{"geometry":{"coordinates":[120.0254,23.5986],"type":"Point"},"type":"Feature","properties":{"name":"台湾省"}},{"geometry":{"coordinates":[109.9512,19.2041],"type":"Point"},"type":"Feature","properties":{"name":"海南省"}},{"geometry":{"coordinates":[105.9961,37.3096],"type":"Point"},"type":"Feature","properties":{"name":"宁夏回族自治区"}},{"geometry":{"coordinates":[107.7539,30.1904],"type":"Point"},"type":"Feature","properties":{"name":"重庆市"}},{"geometry":{"coordinates":[118.8586,32.915],"type":"Point"},"type":"Feature","properties":{"name":"江苏省"}},{"geometry":{"coordinates":[120.498,29.0918],"type":"Point"},"type":"Feature","properties":{"name":"浙江省"}},{"geometry":{"coordinates":[118.3008,25.9277],"type":"Point"},"type":"Feature","properties":{"name":"福建省"}},{"geometry":{"coordinates":[117.2461,32.0361],"type":"Point"},"type":"Feature","properties":{"name":"安徽省"}},{"geometry":{"coordinates":[112.4121,37.6611],"type":"Point"},"type":"Feature","properties":{"name":"山西省"}},{"geometry":{"coordinates":[122.0438,41.0889],"type":"Point"},"type":"Feature","properties":{"name":"辽宁省"}},{"geometry":{"coordinates":[113.0668,33.8818],"type":"Point"},"type":"Feature","properties":{"name":"河南省"}},{"geometry":{"coordinates":[116.0156,27.29],"type":"Point"},"type":"Feature","properties":{"name":"江西省"}},{"geometry":{"coordinates":[118.7402,36.4307],"type":"Point"},"type":"Feature","properties":{"name":"山东省"}},{"geometry":{"coordinates":[106.6113,26.9385],"type":"Point"},"type":"Feature","properties":{"name":"贵州省"}},{"geometry":{"coordinates":[112.2363,31.1572],"type":"Point"},"type":"Feature","properties":{"name":"湖北省"}},{"geometry":{"coordinates":[115.4004,39.4688],"type":"Point"},"type":"Feature","properties":{"name":"河北省"}},{"geometry":{"coordinates":[125.7746,43.5938],"type":"Point"},"type":"Feature","properties":{"name":"吉林省"}},{"geometry":{"coordinates":[113.4668,22.8076],"type":"Point"},"type":"Feature","properties":{"name":"广东省"}},{"geometry":{"coordinates":[109.5996,35.7396],"type":"Point"},"type":"Feature","properties":{"name":"陕西省"}},{"geometry":{"coordinates":[111.5332,27.3779],"type":"Point"},"type":"Feature","properties":{"name":"湖南省"}},{"geometry":{"coordinates":[107.7813,23.6426],"type":"Point"},"type":"Feature","properties":{"name":"广西壮族自治区"}},{"geometry":{"coordinates":[101.0652,25.1807],"type":"Point"},"type":"Feature","properties":{"name":"云南省"}},{"geometry":{"coordinates":[103.05,37.64],"type":"Point"},"type":"Feature","properties":{"name":"甘肃省"}},{"geometry":{"coordinates":[126.1445,48.7156],"type":"Point"},"type":"Feature","properties":{"name":"黑龙江省"}},{"geometry":{"coordinates":[101.9199,30.1904],"type":"Point"},"type":"Feature","properties":{"name":"四川省"}},{"geometry":{"coordinates":[95.2402,35.4199],"type":"Point"},"type":"Feature","properties":{"name":"青海省"}},{"geometry":{"coordinates":[113.9,43.26],"type":"Point"},"type":"Feature","properties":{"name":"内蒙古自治区"}},{"geometry":{"coordinates":[87.8695,31.6846],"type":"Point"},"type":"Feature","properties":{"name":"西藏自治区"}},{"geometry":{"coordinates":[84.9023,42.148],"type":"Point"},"type":"Feature","properties":{"name":"新疆维吾尔自治区"}}],"type":"FeatureCollection"}